[{"description":"The entrepreneurial journey is a roller coaster ride. It is filled with excitement and fun but has its own challenges. New entrepreneurs are always faced with challenges such as raising money, developing a founding team, tapping into the right customer and landing on that one billion dollar idea. Needless to say, starting right is essential! This workshop is the first step to learning entrepreneurship for BCIT students and alumni.\n\nThis two hour exploratory and interactive workshop dives into the realities and fundamentals involved in becoming an entrepreneur. You will understand the process of starting a business and learn the next steps in developing your dream project. \n\nBy the end of this session, you will be able to:\n1.\tAssess and determine if traditional entrepreneurship is for you\n2.\tDevelop an understanding of the 6 steps to staringt a business \n3.\tWork on a group case study and develop a live business idea document\n4.\tObtain a list of entrepreneurial resources for starting a business\n\nIf you wanna be an entrepreneur now or in the future, this workshop will give you the details to get you started.","end_time":"2018-05-16T17:00:00-0700","name":"So you Wanna Be An Entrepreneur?","place":{"name":"BCIT Library &  Learning Commons","location":{"city":"Burnaby","country":"Canada","latitude":49.249390895109,"longitude":-123.00082580081,"state":"BC","street":"3700 Willingdon Avenue","zip":"V5G 3H2"},"id":"175418819137666"},"start_time":"2018-05-16T15:00:00-0700","id":"282917012188641","pname":"BCIT Library &  Learning Commons","city":"Burnaby","country":"Canada","latitude":"49.249390895109","longitude":"-123.00082580081","state":"BC","street":"3700 Willingdon Avenue","zip":"V5G 3H2"},{"description":"The entrepreneurial journey is a roller coaster ride. It is filled with excitement and fun but has its own challenges. New entrepreneurs are always faced with challenges such as raising money, developing a founding team, tapping into the right customer and landing on that one billion dollar idea. Needless to say, starting right is essential! This workshop is the first step to learning entrepreneurship for BCIT students and alumni.\n\nThis two hour exploratory and interactive workshop dives into the realities and fundamentals involved in becoming an entrepreneur. You will understand the process of starting a business and learn the next steps in developing your dream project. \n\nBy the end of this session, you will be able to:\n1.\tAssess and determine if traditional entrepreneurship is for you\n2.\tDevelop an understanding of the 6 steps to staringt a business \n3.\tWork on a group case study and develop a live business idea document\n4.\tObtain a list of entrepreneurial resources for starting a business\n\nIf you wanna be an entrepreneur now or in the future, this workshop will give you the details to get you started.\n\nWHEN: April 18, 2018 @ 3:00 pm – 5:00 pm\nWHERE: Room 303, SE14, Library, BCIT Burnaby Campus\n\nRSVP: https://www.bcitsa.ca/beaboss/event/so-you-wanna-be-an-entrepreneur-12/?instance_id=95","end_time":"2018-04-18T17:00:00-0700","name":"So You Wanna Be An Entrepreneur?","place":{"name":"BCIT Library &  Learning Commons","location":{"city":"Burnaby","country":"Canada","latitude":49.249390895109,"longitude":-123.00082580081,"state":"BC","street":"3700 Willingdon Avenue","zip":"V5G 3H2"},"id":"175418819137666"},"start_time":"2018-04-18T15:00:00-0700","id":"2001054173465126","pname":"BCIT Library &  Learning Commons","city":"Burnaby","country":"Canada","latitude":"49.249390895109","longitude":"-123.00082580081","state":"BC","street":"3700 Willingdon Avenue","zip":"V5G 3H2"},{"description":"Are you a Trades student or alumni tired of working for the boss? Do YOU wanna create your own business and be the boss? If yes, this workshop is your first step to help you get started. New entrepreneurs are always faced with challenges like raising money, developing a founding team, tapping into the right customer, and knowing the licenses and permits required.   Dig into the basics of owning and operating a specialty trade contractor or any other trades business and the lifestyle of being an entrepreneur. We’ll share with you the blueprint to get you started!\n\nBy the end of this session, you will be able to:\n1.\tAssess and determine if traditional entrepreneurship is for you\n2.\tDevelop an understanding of the 6 steps to starting a business \n3.\tWork on a group case study and develop a live business idea document\n4.\tObtain a list of entrepreneurial resources for starting a business\n\nIf you wanna be an entrepreneur now or in the future, this workshop will give you the details to get you started.\n\nWHEN: March 14, 2018 @ 2:00 pm – 3:30 pm\nWHERE: NE1- Room 239, BCIT Burnaby Campus\n\nRSVP: https://www.bcitsa.ca/beaboss/event/byob-for-trades-build-your-own-business-2/?instance_id=143","end_time":"2018-03-14T15:30:00-0700","name":"BYOB (Build Your Own Business)","place":{"name":"BCITSA","location":{"city":"Burnaby","country":"Canada","latitude":49.251290888603,"longitude":-123.00204802783,"state":"BC","street":"3700 Willingdon Avenue","zip":"V5G 3H2"},"id":"117426018300111"},"start_time":"2018-03-14T14:00:00-0700","id":"482108528813825","pname":"BCITSA","city":"Burnaby","country":"Canada","latitude":"49.251290888603","longitude":"-123.00204802783","state":"BC","street":"3700 Willingdon Avenue","zip":"V5G 3H2"},{"description":"The entrepreneurial journey is a roller coaster ride. It is filled with excitement and fun but has its own challenges. New entrepreneurs are always faced with challenges such as raising money, developing a founding team, tapping into the right customer and landing on that one billion dollar idea. Needless to say, starting right is essential! This workshop is the first step to learning entrepreneurship for BCIT students and alumni.\n\nThis two hour exploratory and interactive workshop dives into the realities and fundamentals involved in becoming an entrepreneur. You will understand the process of starting a business and learn the next steps in developing your dream project. \n\nBy the end of this session, you will be able to:\n1.\tAssess and determine if traditional entrepreneurship is for you\n2.\tDevelop an understanding of the 6 steps to staringt a business \n3.\tWork on a group case study and develop a live business idea document\n4.\tObtain a list of entrepreneurial resources for starting a business\n\nIf you wanna be an entrepreneur now or in the future, this workshop will give you the details to get you started.\n\nWHEN: March 7, 2018 @ 3:00 pm – 5:00 pm\nWHERE: Room 303, SE14, Library, BCIT Burnaby Campus\n\nRSVP: https://www.bcitsa.ca/beaboss/event/so-you-wanna-be-an-entrepreneur-11/?instance_id=93","end_time":"2018-03-07T17:00:00-0800","name":"So You Wanna Be An Entrepreneur?","place":{"name":"BCIT Library &  Learning Commons","location":{"city":"Burnaby","country":"Canada","latitude":49.249390895109,"longitude":-123.00082580081,"state":"BC","street":"3700 Willingdon Avenue","zip":"V5G 3H2"},"id":"175418819137666"},"start_time":"2018-03-07T15:00:00-0800","id":"1938507129695919","pname":"BCIT Library &  Learning Commons","city":"Burnaby","country":"Canada","latitude":"49.249390895109","longitude":"-123.00082580081","state":"BC","street":"3700 Willingdon Avenue","zip":"V5G 3H2"},{"description":"It’s true what they say…breakfast really is the most important meal of the day. Eating breakfast can improve cognitive performance, test scores, and achievement scores in students. Come join us in the Great Hall in SE 2 on the first Tuesday of every month for a free healthy breakfast from 8:00am – 9:00am September through April. Relax, watch some cartoons, and visit with friends!\n\nFIRST COME, FIRST SERVE; WHILE SUPPLIES LAST.","end_time":"2018-03-06T09:00:00-0800","name":"Breakfast Club","place":{"name":"BCITSA","location":{"city":"Burnaby","country":"Canada","latitude":49.251290888603,"longitude":-123.00204802783,"state":"BC","street":"3700 Willingdon Avenue","zip":"V5G 3H2"},"id":"117426018300111"},"start_time":"2018-03-06T08:00:00-0800","id":"154186598483921","pname":"BCITSA","city":"Burnaby","country":"Canada","latitude":"49.251290888603","longitude":"-123.00204802783","state":"BC","street":"3700 Willingdon Avenue","zip":"V5G 3H2"},{"description":"The entrepreneurial journey is a roller coaster ride. It is filled with excitement and fun but has its own challenges. New entrepreneurs are always faced with challenges such as raising money, developing a founding team, tapping into the right customer and landing on that one billion dollar idea. Needless to say, starting right is essential! This workshop is the first step to learning entrepreneurship for BCIT students and alumni.\n\nThis two hour exploratory and interactive workshop dives into the realities and fundamentals involved in becoming an entrepreneur. You will understand the process of starting a business and learn the next steps in developing your dream project. \n\nBy the end of this session, you will be able to:\n1.\tAssess and determine if traditional entrepreneurship is for you\n2.\tDevelop an understanding of the 6 steps to staringt a business \n3.\tWork on a group case study and develop a live business idea document\n4.\tObtain a list of entrepreneurial resources for starting a business\n\nIf you wanna be an entrepreneur now or in the future, this workshop will give you the details to get you started.\n\nWHEN: February 28, 2018 @ 3:00 pm – 5:00 pm\nWHERE: Room 303, SE14, Library, BCIT Burnaby Campus\n\nRSVP: https://www.bcitsa.ca/beaboss/event/so-you-wanna-be-an-entrepreneur-10/?instance_id=91","end_time":"2018-02-28T17:00:00-0800","name":"So You Wanna Be An Entrepreneur","place":{"name":"BCIT Library &  Learning Commons","location":{"city":"Burnaby","country":"Canada","latitude":49.249390895109,"longitude":-123.00082580081,"state":"BC","street":"3700 Willingdon Avenue","zip":"V5G 3H2"},"id":"175418819137666"},"start_time":"2018-02-28T15:00:00-0800","id":"287997811678796","pname":"BCIT Library &  Learning Commons","city":"Burnaby","country":"Canada","latitude":"49.249390895109","longitude":"-123.00082580081","state":"BC","street":"3700 Willingdon Avenue","zip":"V5G 3H2"},{"description":"When you are starting up, it is important to understand the common legal terms in a commercial contract and the key strategies that allow you to negotiate a favourable contract. This workshop will help you understand the key contractual terms you will encounter in the course of your business. Types of contracts covered in this workshop include:\n•\tNon-Disclosure Agreements \n•\tPartnership Contracts \n•\tIndependent Contractor Agreements \n•\tSupplier Contracts \n•\tSecurity Agreements \n•\tCommercial Lease Contracts (and more!) \n\nBy the end of this session, you will be able to learn:\n•\tTypes of contracts used in an early stage of a business\n•\tContract considerations for small businesses \n•\tContractual terms which would be used in your business\n•\tNegotiation skills with real business examples","end_time":"2018-02-22T19:00:00-0800","name":"Ask an Expert Workshop: Negotiating Contracts","place":{"name":"BCIT Library &  Learning Commons","location":{"city":"Burnaby","country":"Canada","latitude":49.249390895109,"longitude":-123.00082580081,"state":"BC","street":"3700 Willingdon Avenue","zip":"V5G 3H2"},"id":"175418819137666"},"start_time":"2018-02-22T17:30:00-0800","id":"1835851120009180","pname":"BCIT Library &  Learning Commons","city":"Burnaby","country":"Canada","latitude":"49.249390895109","longitude":"-123.00082580081","state":"BC","street":"3700 Willingdon Avenue","zip":"V5G 3H2"},{"description":"Come relax and release your inner Picasso with monthly art therapy at Habitat! We provide the paint, brushes, aprons, canvases, and you get to take your masterpiece to take home. Tickets are $5 and can be purchased at the Student Association Centre.\n\nSign-up here: https://docs.google.com/forms/d/e/1FAIpQLSecV8C8pATuF7A4QP5Hd4tSSMuY1-LoyVPCC7ESUT7xZ-6bJA/viewform","end_time":"2018-02-13T21:00:00-0800","name":"Brush it Off - Paint Night","place":{"name":"Habitat","location":{"city":"Burnaby","country":"Canada","latitude":49.251540660265,"longitude":-123.00209588659,"state":"BC","street":"3700 Willingdon Ave","zip":"V5G 3H2"},"id":"346974022017617"},"start_time":"2018-02-13T18:00:00-0800","id":"501633820177419","pname":"Habitat","city":"Burnaby","country":"Canada","latitude":"49.251540660265","longitude":"-123.00209588659","state":"BC","street":"3700 Willingdon Ave","zip":"V5G 3H2"},{"description":"It’s true what they say…breakfast really is the most important meal of the day. Eating breakfast can improve cognitive performance, test scores, and achievement scores in students. Come join us in the Great Hall in SE 2 on the first Tuesday of every month for a free healthy breakfast from 8:00am – 9:00am September through April. Relax, watch some cartoons, and visit with friends!\n\nFIRST COME, FIRST SERVE; WHILE SUPPLIES LAST.","end_time":"2018-02-06T09:00:00-0800","name":"Breakfast Club","place":{"name":"BCITSA","location":{"city":"Burnaby","country":"Canada","latitude":49.251290888603,"longitude":-123.00204802783,"state":"BC","street":"3700 Willingdon Avenue","zip":"V5G 3H2"},"id":"117426018300111"},"start_time":"2018-02-06T08:00:00-0800","id":"1940093649536171","pname":"BCITSA","city":"Burnaby","country":"Canada","latitude":"49.251290888603","longitude":"-123.00204802783","state":"BC","street":"3700 Willingdon Avenue","zip":"V5G 3H2"},{"description":"Tech Startups: Just Sayin’ – Entrepreneur Panel Series\n\nWith the rise of smartphones, apps and social media, tech start-ups are no doubt a growing trend. It’s a desirable route, but with increasing competition, good advice early on can be the difference between success and failure. This Panel event will bring tech entrepreneurs to campus to speak to you about their start-up experiences in the tech sector. Gain wisdom from the start-ups that have succeeded and gather info on how you can save time, money and energy along the way.\n\nBy the end of the session, you will learn:\nIf your idea is worth ‘betting everything’\n\nNext steps after developing a Minimum Viable Product\n\nWhen to pivot and how to do it well\n\nIdeas to creating a work culture; Are all tech companies all about ping-pong and Beer Fridays?\n\nProgram:\n5:30pm – 5:45pm –   Registration & Networking\n\n5:45pm – 6:30pm –   Panel Discussion with Entrepreneurs\n\n6:30pm – 7:30pm –   Networking – continue the conversation with fellow entrepreneurial students and our panelists\n\nPanelists will be announced soon.\n\n\nWHEN: January 17, 2018 @ 5:30 pm – 7:30 pm\nWHERE: BCIT Downtown Campus\n555 Seymour St\nVancouver, BC V6B\n\nCOST: Free\nRSVP: https://www.bcitsa.ca/beaboss/event/tech-startups-just-sayin-an-entrepreneur-panel-series/?instance_id=118","end_time":"2018-01-17T19:30:00-0800","name":"Tech Start Ups. Just Sayin' - Entrepreneur Pannel Series","place":{"name":"BCIT Library &  Learning Commons","location":{"city":"Burnaby","country":"Canada","latitude":49.249390895109,"longitude":-123.00082580081,"state":"BC","street":"3700 Willingdon Avenue","zip":"V5G 3H2"},"id":"175418819137666"},"start_time":"2018-01-17T17:30:00-0800","id":"124036964879240","pname":"BCIT Library &  Learning Commons","city":"Burnaby","country":"Canada","latitude":"49.249390895109","longitude":"-123.00082580081","state":"BC","street":"3700 Willingdon Avenue","zip":"V5G 3H2"}]